[
  {
    "id": "birmingham-test",
    "label": "Lonli Birmingham Test (Local)",
    "lat": 52.4895,
    "lng": -1.8980,
    "frequency_khz": 6000,
    "power_watts": 5000,
    "audio": "audio/station.mp3",
    "org": "Test"
  },
  {
    "id": "bbc-world",
    "label": "BBC World Service (sim)",
    "lat": 25.8,
    "lng": 55.96,
    "frequency_khz": 6000,
    "power_watts": 10000,
    "audio": "audio/station.mp3",
    "org": "BBC"
  },
  {
    "id": "voa",
    "label": "Voice of America (sim)",
    "lat": 35.5951,
    "lng": -77.3767,
    "frequency_khz": 7540,
    "power_watts": 10000,
    "audio": "audio/station.mp3",
    "org": "VOA"
  },
  {
    "id": "nhk",
    "label": "NHK Radio Japan (sim)",
    "lat": 35.6895,
    "lng": 139.6917,
    "frequency_khz": 11855,
    "power_watts": 8000,
    "audio": "audio/station.mp3",
    "org": "NHK"
  },
  {
    "id": "cri",
    "label": "China Radio Int. (sim)",
    "lat": 39.9042,
    "lng": 116.4074,
    "frequency_khz": 9730,
    "power_watts": 12000,
    "audio": "audio/station.mp3",
    "org": "CRI"
  },
  {
    "id": "rnzi",
    "label": "RNZI (sim)",
    "lat": -36.8485,
    "lng": 174.7633,
    "frequency_khz": 6105,
    "power_watts": 5000,
    "audio": "audio/station.mp3",
    "org": "RNZI"
  },
  {
    "id": "wrmi",
    "label": "WRMI (sim)",
    "lat": 27.2408,
    "lng": -80.8295,
    "frequency_khz": 9950,
    "power_watts": 20000,
    "audio": "audio/station.mp3",
    "org": "WRMI"
  }
]
