[
  {
    "name": "Lonli Birmingham (Test Station(",
    "lat": 52.4895,
    "lng": -1.8980,
    "frequency_khz": 6000,
    "power_watts": 5000
  },
  {
    "name": "BBC World Service (Ascension Island)",
    "lat": -7.9467,
    "lng": -14.3559,
    "frequency_khz": 5970,
    "power_watts": 250000
  },
  {
    "name": "Voice of America – Greenville",
    "lat": 35.5951,
    "lng": -77.3767,
    "frequency_khz": 11800,
    "power_watts": 250000
  },
  {
    "name": "NHK Radio Japan",
    "lat": 35.6895,
    "lng": 139.6917,
    "frequency_khz": 15130,
    "power_watts": 300000
  },
  {
    "name": "Radio New Zealand International (RNZI)",
    "lat": -41.2769,
    "lng": 174.7772,
    "frequency_khz": 9700,
    "power_watts": 100000
  },
  {
    "name": "China Radio International (Beijing)",
    "lat": 39.9042,
    "lng": 116.4074,
    "frequency_khz": 7345,
    "power_watts": 500000
  },
  {
    "name": "WRMI – Radio Miami International",
    "lat": 25.7617,
    "lng": -80.1918,
    "frequency_khz": 9955,
    "power_watts": 100000
  }
]
